{
"type": "FeatureCollection",
"name": "urbanCentoids",
"crs": { "type": "name", "properties": { "name": "urn:ogc:def:crs:OGC:1.3:CRS84" } },
"features": [
{ "type": "Feature", "properties": { "ogc_fid": 1, "Name": "Tanjong Pagar", "Type": "Urban", "Winner": "PAP" }, "geometry": { "type": "Point", "coordinates": [ 103.844503232775978, 1.275642775220095 ] } },
{ "type": "Feature", "properties": { "ogc_fid": 2, "Name": "Telok Ayer", "Type": "Urban", "Winner": "Ind." }, "geometry": { "type": "Point", "coordinates": [ 103.848934161147838, 1.281678606226688 ] } },
{ "type": "Feature", "properties": { "ogc_fid": 3, "Name": "Tiong Bahru", "Type": "Urban", "Winner": "DP" }, "geometry": { "type": "Point", "coordinates": [ 103.830944740359428, 1.279893737108725 ] } },
{ "type": "Feature", "properties": { "ogc_fid": 4, "Name": "Havelock", "Type": "Urban", "Winner": "SLF" }, "geometry": { "type": "Point", "coordinates": [ 103.834824450297248, 1.288159019713477 ] } },
{ "type": "Feature", "properties": { "ogc_fid": 5, "Name": "Stamford", "Type": "Urban", "Winner": "SLF" }, "geometry": { "type": "Point", "coordinates": [ 103.850910243787339, 1.295469523901455 ] } },
{ "type": "Feature", "properties": { "ogc_fid": 6, "Name": "Rochore", "Type": "Urban", "Winner": "SLF" }, "geometry": { "type": "Point", "coordinates": [ 103.862012935126572, 1.303509459764918 ] } },
{ "type": "Feature", "properties": { "ogc_fid": 7, "Name": "Cairnhill", "Type": "Urban", "Winner": "SLF" }, "geometry": { "type": "Point", "coordinates": [ 103.839968100237513, 1.304682606814869 ] } },
{ "type": "Feature", "properties": { "ogc_fid": 8, "Name": "Farrer Park", "Type": "Urban", "Winner": "SLF" }, "geometry": { "type": "Point", "coordinates": [ 103.84951619937695, 1.317132705953617 ] } },
{ "type": "Feature", "properties": { "ogc_fid": 9, "Name": "Kampong Kapor", "Type": "Urban", "Winner": "SLF" }, "geometry": { "type": "Point", "coordinates": [ 103.861562000128558, 1.312321620157387 ] } },
{ "type": "Feature", "properties": { "ogc_fid": 10, "Name": "Whampoa", "Type": "Urban", "Winner": "SLF" }, "geometry": { "type": "Point", "coordinates": [ 103.854552358973507, 1.333452786138347 ] } },
{ "type": "Feature", "properties": { "ogc_fid": 11, "Name": "Katong", "Type": "Urban", "Winner": "SLF" }, "geometry": { "type": "Point", "coordinates": [ 103.901445945235679, 1.308089248430153 ] } },
{ "type": "Feature", "properties": { "ogc_fid": 12, "Name": "Geylang", "Type": "Urban", "Winner": "SLF" }, "geometry": { "type": "Point", "coordinates": [ 103.880141172393735, 1.312686863268579 ] } },
{ "type": "Feature", "properties": { "ogc_fid": 20, "Name": "Bukit Panjang", "Type": "Rural", "Winner": "PP" }, "geometry": null }
]
}
